{'html_attributions': [], 'next_page_token': 'AWU5eFjhxTvZaXtyRy-jDhoC53KRcG6pz3ZdlDkzsu2g5CgCWk7pSV6tEGgeX-iTlgqZFvzwXhzVyya2qES0ktpZFBAJTy3mDn1MZ6AW44QOwimHd8PxIr6OYNXkqKweIpmckSd2iNnAVYC83ua7dtmpxAJhrttA8B14kf9PHMoi0QwIxp84nCDYeTXdI1GExQbFFNhy6nU9_GKW71BbMJBPgltWcTq9GONpwdA9LefRMLB04Ae9JDPTo_mmqvmRkXtTK_iIcVPx0JvxDFkW72eGXhNdDvBkYxVztA511u8NNI3e9HeNiBQYDZX2k-WuAOrGegm2tm2kjxAQPJTMqPv_KHOsbFQzvE6Wjh7ztelk2kLj_EK7IVylYA7nbXPSkHuf9CcYBVPZarPvklm9ApHKsgNIsjRoz9nk8jdPCFrJNjzzH9mgr-yf1UWyw43QXzms-p2h', 'results': [{'

': 'OPERATIONAL', 'geometry': {'location': {'lat': -27.6009136, 'lng': -48.503626}, 'viewport': {'northeast': {'lat': -27.59965112010728, 'lng': -48.50223562010728}, 'southwest': {'lat': -27.60235077989272, 'lng': -48.50493527989272}}}, 'icon': 'https://maps.gstatic.com/mapfiles/place_api/icons/v1/png_71/civic_building-71.png', 'icon_background_color': '#7B9EB0', 'icon_mask_base_uri': 'https://maps.gstatic.com/mapfiles/place_api/icons/v2/civic-bldg_pinlet', 'name': 'Centro de Saúde Córrego Grande', 'opening_hours': {'open_now': True}, 'photos': [{'height': 556, 'html_attributions': ['<a href="https://maps.google.com/maps/contrib/105544194805369783288">A Google User</a>'], 'photo_reference': 'AWU5eFgGOMGyVrY1N-uW657c87CRfv6znzrRUHaQ2uPswHCFrvjjr_mZ21waOADls0kQdpDW6f0HJ8u96B6Oo4D6KrvhxooCwG1xjRvohHJEOiDbalQzyeAuLh5tbEiQtTQf3Kx4mm5qHcGnqHgmbrX5Es6rOOxZmMaJDnAVrJe99xXPy1qB', 'width': 1024}], 'place_id': 'ChIJfbZoG7U5J5UR9oip1T2N3fA', 'plus_code': {'compound_code': '9FXW+JG Corrego Grande, Florianópolis - State of Santa Catarina', 'global_code': '584H9FXW+JG'}, 'rating': 4.1, 'reference': 'ChIJfbZoG7U5J5UR9oip1T2N3fA', 'scope': 'GOOGLE', 'types': ['doctor', 'health', 'point_of_interest', 'establishment'], 'user_ratings_total': 92, 'vicinity': 'R. João Pio Duarte Silva, 1415 - Córrego Grande, Florianópolis'}, {'

': 'OPERATIONAL', 'geometry': {'location': {'lat': -27.6082903, 'lng': -48.5211931}, 'viewport': {'northeast': {'lat': -27.60703282010727, 'lng': -48.51976302010728}, 'southwest': {'lat': -27.60973247989272, 'lng': -48.52246267989272}}}, 'icon': 'https://maps.gstatic.com/mapfiles/place_api/icons/v1/png_71/generic_business-71.png', 'icon_background_color': '#7B9EB0', 'icon_mask_base_uri': 'https://maps.gstatic.com/mapfiles/place_api/icons/v2/generic_pinlet', 'name': 'Centro de Saúde Pantanal', 'opening_hours': {'open_now': True}, 'photos': [{'height': 675, 'html_attributions': ['<a href="https://maps.google.com/maps/contrib/111596155813849833316">A Google User</a>'], 'photo_reference': 'AWU5eFipDQIP9bN4OQPP-Tgw9cl1CKLq-FcYHGtTGdLgOCJelWa0zmsCN2iTnIeSEdk6cILwMpvAYT7RcaZLxUxXhYvciC_qDX8f85owg8u0XDmArk1vMPf-XzEI61kGZjWAPqjEpxn7Qp5ArLNnA78b9G3nKTQgxw_RCIY7v23-g47tI3gP', 'width': 1200}], 'place_id': 'ChIJC2h4aew5J5UR4V1tSaKVbGo', 'plus_code': {'compound_code': '9FRH+MG Pantanal, Florianópolis - State of Santa Catarina', 'global_code': '584H9FRH+MG'}, 'rating': 4.6, 'reference': 'ChIJC2h4aew5J5UR4V1tSaKVbGo', 'scope': 'GOOGLE', 'types': ['point_of_interest', 'establishment'], 'user_ratings_total': 432, 'vicinity': 'R. Dep. Antônio Edu Vieira, 855 - Pantanal, Florianópolis'}, {'

': 'OPERATIONAL', 'geometry': {'location': {'lat': -27.585669, 'lng': -48.5224646}, 'viewport': {'northeast': {'lat': -27.58422812010728, 'lng': -48.52101717010727}, 'southwest': {'lat': -27.58692777989272, 'lng': -48.52371682989271}}}, 'icon': 'https://maps.gstatic.com/mapfiles/place_api/icons/v1/png_71/civic_building-71.png', 'icon_background_color': '#7B9EB0', 'icon_mask_base_uri': 'https://maps.gstatic.com/mapfiles/place_api/icons/v2/civic-bldg_pinlet', 'name': 'Trindade Health Care Center', 'opening_hours': {'open_now': True}, 'photos': [{'height': 774, 'html_attributions': ['<a href="https://maps.google.com/maps/contrib/102098380865446646944">A Google User</a>'], 'photo_reference': 'AWU5eFgk7Vj95pKsL0c_lrFNM3VDDEPd62CZzNc9Iw5YcKuKDzNtOmfwrACu8laEE81qkJj3EhTtN7LGiK5uh--ZNofbHEVGiA-1xmqbtPm1n2Xq4NbvIJCFs3fZu0za-j3pIc8719K_sO3h_vebeDVRDbRwq7mszd-zwhCtJsM_0_qvTXKw', 'width': 1032}], 'place_id': 'ChIJU2VuMrY5J5URqHDHwZyumqo', 'plus_code': {'compound_code': 'CF7H+P2 Trindade, Florianópolis - State of Santa Catarina', 'global_code': '584HCF7H+P2'}, 'rating': 3.5, 'reference': 'ChIJU2VuMrY5J5URqHDHwZyumqo', 'scope': 'GOOGLE', 'types': ['doctor', 'health', 'point_of_interest', 'establishment'], 'user_ratings_total': 191, 'vicinity': 'R. Prof. Odilon Fernandes - Trindade, Florianópolis'}, {'

': 'OPERATIONAL', 'geometry': {'location': {'lat': -27.6154244, 'lng': -48.5269853}, 'viewport': {'northeast': {'lat': -27.61408677010728, 'lng': -48.52559677010727}, 'southwest': {'lat': -27.61678642989272, 'lng': -48.52829642989271}}}, 'icon': 'https://maps.gstatic.com/mapfiles/place_api/icons/v1/png_71/generic_business-71.png', 'icon_background_color': '#7B9EB0', 'icon_mask_base_uri': 'https://maps.gstatic.com/mapfiles/place_api/icons/v2/generic_pinlet', 'name': 'Centro de Saúde Saco dos Limões', 'opening_hours': {'open_now': True}, 'photos': [{'height': 1722, 'html_attributions': ['<a href="https://maps.google.com/maps/contrib/114764967432483060998">Paulo Roberto Witoslawski</a>'], 'photo_reference': 'AWU5eFhF3JhEIt5Dlt1eV_IsLcgq9tAL0S-l5KxHECLek1csEuQC_GWB1PCQZtWIR66nvqlTk6HNGAlALoksSuV3ChyO0KeuTOBusZ5KxL7ajhcqGdq_iIm3UNR-kvDRquTq0xDEQEkmV9CGMULl3YySKGd3uc0_rJQHyRkDT1Ga2L4v0LGw', 'width': 2584}], 'place_id': 'ChIJeboDC645J5URSmpWAZZwQVM', 'plus_code': {'compound_code': '9FMF+R5 Saco dos Limoes, Florianópolis - State of Santa Catarina', 'global_code': '584H9FMF+R5'}, 'rating': 2.7, 'reference': 'ChIJeboDC645J5URSmpWAZZwQVM', 'scope': 'GOOGLE', 'types': ['doctor', 'health', 'point_of_interest', 'establishment'], 'user_ratings_total': 65, 'vicinity': 'R. Aldo Alves, 228 - Saco dos Limões, Florianópolis'}, {'

': 'OPERATIONAL', 'geometry': {'location': {'lat': -27.584638, 'lng': -48.4983127}, 'viewport': {'northeast': {'lat': -27.58321782010728, 'lng': -48.49691377010728}, 'southwest': {'lat': -27.58591747989272, 'lng': -48.49961342989272}}}, 'icon': 'https://maps.gstatic.com/mapfiles/place_api/icons/v1/png_71/civic_building-71.png', 'icon_background_color': '#7B9EB0', 'icon_mask_base_uri': 'https://maps.gstatic.com/mapfiles/place_api/icons/v2/civic-bldg_pinlet', 'name': 'Health Center Itacorubi', 'opening_hours': {'open_now': True}, 'photos': [{'height': 1106, 'html_attributions': ['<a href="https://maps.google.com/maps/contrib/115679604367300875059">A Google User</a>'], 'photo_reference': 'AWU5eFgsw4YPGg8HVe5jTj7qHw39lzWycbVTdlgKW9x0CGuLN3Uv0XYFL5evKeIEIePU0C9IAn2ppqPUXicqPaPREWrGWAGY3oa-_NH8ZpczKQzeG9MurpSQ5Twc5xtzS8vTYVmft88fjZYmqrRpqczcoIL8NVChruAFCeFukbtteEy-JUyw', 'width': 1575}], 'place_id': 'ChIJ5YbCj904J5URquoIu0ucr30', 'plus_code': {'compound_code': 'CG82+4M Itacorubi, Florianópolis - State of Santa Catarina', 'global_code': '584HCG82+4M'}, 'rating': 3.5, 'reference': 'ChIJ5YbCj904J5URquoIu0ucr30', 'scope': 'GOOGLE', 'types': ['doctor', 'health', 'point_of_interest', 'establishment'], 'user_ratings_total': 75, 'vicinity': 'Rod. Amaro Antônio Viêira, 2260 - Itacorubi, Florianópolis'}, {'

': 'OPERATIONAL', 'geometry': {'location': {'lat': -27.5954269, 'lng': -48.5400606}, 'viewport': {'northeast': {'lat': -27.59400162010728, 'lng': -48.53873637010728}, 'southwest': {'lat': -27.59670127989272, 'lng': -48.54143602989272}}}, 'icon': 'https://maps.gstatic.com/mapfiles/place_api/icons/v1/png_71/civic_building-71.png', 'icon_background_color': '#7B9EB0', 'icon_mask_base_uri': 'https://maps.gstatic.com/mapfiles/place_api/icons/v2/civic-bldg_pinlet', 'name': 'Centro de Saúde Monte Serrat', 'opening_hours': {'open_now': True}, 'photos': [{'height': 1181, 'html_attributions': ['<a href="https://maps.google.com/maps/contrib/104369124054183862962">Rafael Branco</a>'], 'photo_reference': 'AWU5eFgKkMEKkpQRB5WrqPwyAQF48xEEVpEW8uUTdgmt-5g9O1UPi8bOK_7WKtrnmyCdzaC0pp-GAR_a_2AHJuzwccP2L7yZzQKICGJCk6Sj4ceaV3t2tf_kLJ7DOPa_CKRcH4m9hu2fgOynkRAWhnRLD7DaPctRoA77T1p6suO8k-ktBX7w', 'width': 1575}], 'place_id': 'ChIJBb-jOzU5J5URUU9gN6oGLJQ', 'plus_code': {'compound_code': 'CF35+RX Florianópolis, State of Santa Catarina', 'global_code': '584HCF35+RX'}, 'rating': 3.2, 'reference': 'ChIJBb-jOzU5J5URUU9gN6oGLJQ', 'scope': 'GOOGLE', 'types': ['hospital', 'health', 'point_of_interest', 'establishment'], 'user_ratings_total': 57, 'vicinity': 'R. Gen. Nestor Passos, 226 - Monte Serrat, Florianópolis'}, {'

': 'OPERATIONAL', 'geometry': {'location': {'lat': -27.606629, 'lng': -48.5467501}, 'viewport': {'northeast': {'lat': -27.60525727010727, 'lng': -48.54549707010727}, 'southwest': {'lat': -27.60795692989272, 'lng': -48.54819672989272}}}, 'icon': 'https://maps.gstatic.com/mapfiles/place_api/icons/v1/png_71/civic_building-71.png', 'icon_background_color': '#7B9EB0', 'icon_mask_base_uri': 'https://maps.gstatic.com/mapfiles/place_api/icons/v2/civic-bldg_pinlet', 'name': 'Centro de Saúde Prainha', 'opening_hours': {'open_now': True}, 'photos': [{'height': 3120, 'html_attributions': ['<a href="https://maps.google.com/maps/contrib/112202590545037259100">Patrícia Schultz</a>'], 'photo_reference': 'AWU5eFgZGEkJI0TIvMAAfqal4AMIuTFgRE5EkZ0WOHg8lxgP6tX4gsGcPMj1tI2iSx4vplyiAsmVTfIsK1YXVUdLwmNUDcWO49nV9E5VLYGYdVuFbCksDTYf65k4h3uA3GJ-tcEh-ITrVkGKjhrvBSr9vrumFK8I6IHUOjui6l3vB8ke5-tA', 'width': 4160}], 'place_id': 'ChIJpXtXrTQ5J5URHwhp_Ton5Ts', 'plus_code': {'compound_code': '9FV3+87 Florianópolis, State of Santa Catarina', 'global_code': '584H9FV3+87'}, 'rating': 4, 'reference': 'ChIJpXtXrTQ5J5URHwhp_Ton5Ts', 'scope': 'GOOGLE', 'types': ['doctor', 'health', 'point_of_interest', 'establishment'], 'user_ratings_total': 40, 'vicinity': 'R. Silva Jardim, 621 - Prainha, Florianópolis'}, {'

': 'OPERATIONAL', 'geometry': {'location': {'lat': -27.6160733, 'lng': -48.4842917}, 'viewport': {'northeast': {'lat': -27.61473617010728, 'lng': -48.48298722010728}, 'southwest': {'lat': -27.61743582989272, 'lng': -48.48568687989273}}}, 'icon': 'https://maps.gstatic.com/mapfiles/place_api/icons/v1/png_71/civic_building-71.png', 'icon_background_color': '#7B9EB0', 'icon_mask_base_uri': 'https://maps.gstatic.com/mapfiles/place_api/icons/v2/civic-bldg_pinlet', 'name': 'CS Canto da Lagoa', 'opening_hours': {'open_now': True}, 'photos': [{'height': 640, 'html_attributions': ['<a href="https://maps.google.com/maps/contrib/108044665907253394831">A Google User</a>'], 'photo_reference': 'AWU5eFholPzGAEvGt0yYcBEleG_jVJgsSr_ySsBZGTFc7UXXJjz8oH1CvfvVoRUvHqtV6YNGU-eUzr4gJJoR-He6j-1-YLuvK7Oz4vrHMITyK51lPFKX_KpiPrgBQddE_lJWLom9zLpgOjvkrtCdUn-uRPD0D_g4SEPronfkxSYLaT-DkxRS', 'width': 480}], 'place_id': 'ChIJtQAJZhg5J5URYwI6RyGQA9U', 'plus_code': {'compound_code': '9GM8+H8 Lagoa, Florianópolis - State of Santa Catarina', 'global_code': '584H9GM8+H8'}, 'rating': 2.7, 'reference': 'ChIJtQAJZhg5J5URYwI6RyGQA9U', 'scope': 'GOOGLE', 'types': ['doctor', 'health', 'point_of_interest', 'establishment'], 'user_ratings_total': 7, 'vicinity': 'R. Laurindo Januário da Silveira, 2507 - Lagoa da Conceição, Florianópolis'}, {'

': 'OPERATIONAL', 'geometry': {'location': {'lat': -27.5745149, 'lng': -48.5370413}, 'viewport': {'northeast': {'lat': -27.57313047010728, 'lng': -48.53580212010727}, 'southwest': {'lat': -27.57583012989272, 'lng': -48.53850177989272}}}, 'icon': 'https://maps.gstatic.com/mapfiles/place_api/icons/v1/png_71/civic_building-71.png', 'icon_background_color': '#7B9EB0', 'icon_mask_base_uri': 'https://maps.gstatic.com/mapfiles/place_api/icons/v2/civic-bldg_pinlet', 'name': 'Centro de Saúde Agronômica', 'opening_hours': {'open_now': True}, 'photos': [{'height': 3024, 'html_attributions': ['<a href="https://maps.google.com/maps/contrib/114039021251571694615">A Google User</a>'], 'photo_reference': 'AWU5eFjr1hN9sKg_20ucAuFmmVA-83w4OSNV3YCBeWTzUi1I-uLFjtbMo7_cJTb6Zoz6pV1AIjxGe4MKoBWTX0RB3THXSDHhSBzmJjHJtUxnZlH0JAf26dDvcxq3Sk4anPOnt-qxRwXZX3HSzAtINrfnQ9yF-bbukZrRVpC0TB46GQyTsQxB', 'width': 4032}], 'place_id': 'ChIJTQE17nI4J5UR9sOoWlVrlMo', 'plus_code': {'compound_code': 'CFG7+55 Agronômica, Florianópolis - State of Santa Catarina', 'global_code': '584HCFG7+55'}, 'rating': 4.2, 'reference': 'ChIJTQE17nI4J5UR9sOoWlVrlMo', 'scope': 'GOOGLE', 'types': ['health', 'point_of_interest', 'establishment'], 'user_ratings_total': 305, 'vicinity': 'R. Rui Barbosa, s/n - Agronômica, Florianópolis'}, {'

': 'OPERATIONAL', 'geometry': {'location': {'lat': -27.6335403, 'lng': -48.5227073}, 'viewport': {'northeast': {'lat': -27.63217002010728, 'lng': -48.52141437010728}, 'southwest': {'lat': -27.63486967989272, 'lng': -48.52411402989272}}}, 'icon': 'https://maps.gstatic.com/mapfiles/place_api/icons/v1/png_71/generic_business-71.png', 'icon_background_color': '#7B9EB0', 'icon_mask_base_uri': 'https://maps.gstatic.com/mapfiles/place_api/icons/v2/generic_pinlet', 'name': 'Centro de Saúde Costeira do Pirajubaé', 'opening_hours': {'open_now': True}, 'photos': [{'height': 1031, 'html_attributions': ['<a href="https://maps.google.com/maps/contrib/108259584233463296638">Floripa na Mesa por Tatianna Ferraro</a>'], 'photo_reference': 'AWU5eFjfL_KdvD8XWyk48ApMCb72xS-7ZYWD6R_xJmKnw7df-heZKDBkHffA9H9tuZZTVmnlgVP9nr4p4kp-JieD59sqnfjIm5Pbpz5hZND9XEjDEkAHk6jCNic4l50rV-cylMSWlXzhHz9ii1Ej01aYsyq4i5h-CAes6aCanXpGazrcw9DT', 'width': 1575}], 'place_id': 'ChIJ2W68NrE5J5URPKlD4aTf1LE', 'plus_code': {'compound_code': '9F8G+HW Costeira do Pirajubaé, Florianópolis - State of Santa Catarina', 'global_code': '584H9F8G+HW'}, 'rating': 4.2, 'reference': 'ChIJ2W68NrE5J5URPKlD4aTf1LE', 'scope': 'GOOGLE', 'types': ['doctor', 'health', 'point_of_interest', 'establishment'], 'user_ratings_total': 47, 'vicinity': 'R. João Câncio Jacques, 1461 - Costeira do Pirajubaé, Florianópolis'}, {'

': 'OPERATIONAL', 'geometry': {'location': {'lat': -27.5617815, 'lng': -48.5135036}, 'viewport': {'northeast': {'lat': -27.56043882010728, 'lng': -48.51214742010728}, 'southwest': {'lat': -27.56313847989272, 'lng': -48.51484707989272}}}, 'icon': 'https://maps.gstatic.com/mapfiles/place_api/icons/v1/png_71/civic_building-71.png', 'icon_background_color': '#7B9EB0', 'icon_mask_base_uri': 'https://maps.gstatic.com/mapfiles/place_api/icons/v2/civic-bldg_pinlet', 'name': 'CS João Paulo', 'opening_hours': {'open_now': True}, 'photos': [{'height': 1181, 'html_attributions': ['<a href="https://maps.google.com/maps/contrib/112437421827295088193">A Google User</a>'], 'photo_reference': 'AWU5eFhuux4HvJkFRneHHRvn9Pe6U7uJMWwR3q4keLTKDwqIEmtgiVEQbmHGre5hY_gwUwkhqceH9ytCTrJUYjldptBosMAU61ZSqKSKAODQlTnI1Gr0lTX-xB_obc3WEvED4ynQAMQHaxdT2poi943Pn6PQGBhy9eCS4JVt-1iPsYhahQOB', 'width': 1575}], 'place_id': 'ChIJb4O8PVI5J5URB6Al6WlaGuM', 'plus_code': {'compound_code': 'CFQP+8H João Paulo, Florianópolis - State of Santa Catarina', 'global_code': '584HCFQP+8H'}, 'rating': 4.6, 'reference': 'ChIJb4O8PVI5J5URB6Al6WlaGuM', 'scope': 'GOOGLE', 'types': ['doctor', 'health', 'point_of_interest', 'establishment'], 'user_ratings_total': 34, 'vicinity': 'Rodovia João Paulo, s/nº Final da rua ao lado da Escola José do Valle Pereira - João Paulo, Florianópolis'}, {'

': 'OPERATIONAL', 'geometry': {'location': {'lat': -27.5927218, 'lng': -48.5574566}, 'viewport': {'northeast': {'lat': -27.59129187010728, 'lng': -48.55612647010728}, 'southwest': {'lat': -27.59399152989272, 'lng': -48.55882612989272}}}, 'icon': 'https://maps.gstatic.com/mapfiles/place_api/icons/v1/png_71/generic_business-71.png', 'icon_background_color': '#7B9EB0', 'icon_mask_base_uri': 'https://maps.gstatic.com/mapfiles/place_api/icons/v2/generic_pinlet', 'name': 'Centro de Saúde Centro', 'opening_hours': {'open_now': True}, 'photos': [{'height': 1080, 'html_attributions': ['<a href="https://maps.google.com/maps/contrib/103561383850864465603">A Google User</a>'], 'photo_reference': 'AWU5eFi0F7CckduHEmfTxMahvZyIk7yiZNDPblxq9sxdlSG_IVSvYnRNpuTbk8aB9XKIyroBz_5bYHGhHYL_gUspAbfiARcVxY4dCEcg8fjOnOJXouk-kmeL3PHZMpNvDs1CJghJEGnA-Cr5f5E0jhujROerOOIEucssZv9Vl3ZAwbH0GD-q', 'width': 1920}], 'place_id': 'ChIJlaZ0r2Y5J5URtjZ2yzny5B4', 'plus_code': {'compound_code': 'CC4V+W2 Centro, Florianópolis - State of Santa Catarina', 'global_code': '584HCC4V+W2'}, 'rating': 4.7, 'reference': 'ChIJlaZ0r2Y5J5URtjZ2yzny5B4', 'scope': 'GOOGLE', 'types': ['doctor', 'health', 'point_of_interest', 'establishment'], 'user_ratings_total': 532, 'vicinity': 'Av. Rio Branco, 90 - Centro, Florianópolis'}, {'

': 'OPERATIONAL', 'geometry': {'location': {'lat': -27.5996269, 'lng': -48.4704478}, 'viewport': {'northeast': {'lat': -27.59836797010728, 'lng': -48.46904557010728}, 'southwest': {'lat': -27.60106762989273, 'lng': -48.47174522989272}}}, 'icon': 'https://maps.gstatic.com/mapfiles/place_api/icons/v1/png_71/civic_building-71.png', 'icon_background_color': '#7B9EB0', 'icon_mask_base_uri': 'https://maps.gstatic.com/mapfiles/place_api/icons/v2/civic-bldg_pinlet', 'name': 'CS Lagoa da Conceição', 'opening_hours': {'open_now': True}, 'photos': [{'height': 1181, 'html_attributions': ['<a href="https://maps.google.com/maps/contrib/104369124054183862962">Rafael Branco</a>'], 'photo_reference': 'AWU5eFgc-G4ibDcg_vyWj7CZK39_YdAKUWeVeLUtVsTrgYGTSpWmo8KWsDuoqermBr1LdHoQjqxU7WqQLh9dwNztjgPa1qYLwE-jKGqzHjvaKAArLDi9D39vVNmCRMz2Derjr8cHevX4gqtVcjOlMKuCOewGvhTBKl7mVnL37cUq7HFOrj7j', 'width': 1575}], 'place_id': 'ChIJc6yGAcY_J5URyxrEnk-6Bd4', 'plus_code': {'compound_code': 'CG2H+5R Lagoa, Florianópolis - State of Santa Catarina', 'global_code': '584HCG2H+5R'}, 'rating': 4.7, 'reference': 'ChIJc6yGAcY_J5URyxrEnk-6Bd4', 'scope': 'GOOGLE', 'types': ['doctor', 'health', 'point_of_interest', 'establishment'], 'user_ratings_total': 319, 'vicinity': 'R. João Pachêco da Costa, 255 - Lagoa da Conceição, Florianópolis'}, {'

': 'OPERATIONAL', 'geometry': {'location': {'lat': -27.5525725, 'lng': -48.49635379999999}, 'viewport': {'northeast': {'lat': -27.55121137010728, 'lng': -48.49493852010728}, 'southwest': {'lat': -27.55391102989272, 'lng': -48.49763817989272}}}, 'icon': 'https://maps.gstatic.com/mapfiles/place_api/icons/v1/png_71/civic_building-71.png', 'icon_background_color': '#7B9EB0', 'icon_mask_base_uri': 'https://maps.gstatic.com/mapfiles/place_api/icons/v2/civic-bldg_pinlet', 'name': 'CS Saco Grande', 'opening_hours': {'open_now': True}, 'photos': [{'height': 3024, 'html_attributions': ['<a href="https://maps.google.com/maps/contrib/108338306634122740010">A Google User</a>'], 'photo_reference': 'AWU5eFj5o_2Tucq0keZt2BW6HeQzH_SwvDmYn7xIJQOolpnCMtSUSAndMGGwzt45Z9RxLvYLl3hjlJjzyGRVHMN36l6lmDhhkjn0Cxo65joCjyBc6J6TisbCMDTi58vZspGqcWaWfAU98_fXY6sS8ovWrWihaNhydtSc60EoBjYQPcK7BF2i', 'width': 4032}], 'place_id': 'ChIJp1OvWxY5J5UROtaHrSlUSzM', 'plus_code': {'compound_code': 'CGW3+XC Saco Grande, Florianópolis - State of Santa Catarina', 'global_code': '584HCGW3+XC'}, 'rating': 3.7, 'reference': 'ChIJp1OvWxY5J5UROtaHrSlUSzM', 'scope': 'GOOGLE', 'types': ['doctor', 'health', 'point_of_interest', 'establishment'], 'user_ratings_total': 123, 'vicinity': 'Rod. Virgílio Várzea, 807 - Saco Grande, Florianópolis'}, {'

': 'OPERATIONAL', 'geometry': {'location': {'lat': -27.6030218, 'lng': -48.5757031}, 'viewport': {'northeast': {'lat': -27.60164722010727, 'lng': -48.57444917010728}, 'southwest': {'lat': -27.60434687989272, 'lng': -48.57714882989272}}}, 'icon': 'https://maps.gstatic.com/mapfiles/place_api/icons/v1/png_71/hospital-71.png', 'icon_background_color': '#F88181', 'icon_mask_base_uri': 'https://maps.gstatic.com/mapfiles/place_api/icons/v2/hospital-H_pinlet', 'name': 'Posto de saude coqueiros', 'opening_hours': {'open_now': True}, 'place_id': 'ChIJYevZAM03J5UR1ijq72nh_Wk', 'plus_code': {'compound_code': '9CWF+QP Coqueiros, Florianópolis - State of Santa Catarina', 'global_code': '584H9CWF+QP'}, 'rating': 0, 'reference': 'ChIJYevZAM03J5UR1ijq72nh_Wk', 'scope': 'GOOGLE', 'types': ['hospital', 'health', 'point_of_interest', 'establishment'], 'user_ratings_total': 0, 'vicinity': 'Av. Eng. Max de Souza, 907 - Coqueiros, Florianópolis'}, {'

': 'OPERATIONAL', 'geometry': {'location': {'lat': -27.6029799, 'lng': -48.5757393}, 'viewport': {'northeast': {'lat': -27.60164697010728, 'lng': -48.57441637010727}, 'southwest': {'lat': -27.60434662989272, 'lng': -48.57711602989272}}}, 'icon': 'https://maps.gstatic.com/mapfiles/place_api/icons/v1/png_71/civic_building-71.png', 'icon_background_color': '#7B9EB0', 'icon_mask_base_uri': 'https://maps.gstatic.com/mapfiles/place_api/icons/v2/civic-bldg_pinlet', 'name': 'Centro de Saúde Coqueiros', 'opening_hours': {'open_now': True}, 'photos': [{'height': 4032, 'html_attributions': ['<a href="https://maps.google.com/maps/contrib/112044171558559290391">Maurício Fernandes</a>'], 'photo_reference': 'AWU5eFgEiHsNW0FNewUBok5X5ldp35Xno7Hc-wXf9HK_NDnb9dZBWzdoGA_NuF4slY8Ce1ozQH6K7JQUnd-10RsL6kJ25CN6n47msAwlSJDwgYVawrRVRSscQiLEmRsUi-fYtFr72e6ntJrQ-wow8GxZ3AKQVcW0LwmfQ4VTXsWaGH0mLNje', 'width': 3024}], 'place_id': 'ChIJyRT5Ww03J5URLEiw3mMXoME', 'plus_code': {'compound_code': '9CWF+QP Coqueiros, Florianópolis - State of Santa Catarina', 'global_code': '584H9CWF+QP'}, 'rating': 3.3, 'reference': 'ChIJyRT5Ww03J5URLEiw3mMXoME', 'scope': 'GOOGLE', 'types': ['doctor', 'health', 'point_of_interest', 'establishment'], 'user_ratings_total': 67, 'vicinity': 'Av. Eng. Max de Souza, s/n - Coqueiros, Florianópolis'}, {'

': 'OPERATIONAL', 'geometry': {'location': {'lat': -27.5980112, 'lng': -48.5798552}, 'viewport': {'northeast': {'lat': -27.59658497010728, 'lng': -48.57852977010727}, 'southwest': {'lat': -27.59928462989272, 'lng': -48.58122942989272}}}, 'icon': 'https://maps.gstatic.com/mapfiles/place_api/icons/v1/png_71/generic_business-71.png', 'icon_background_color': '#7B9EB0', 'icon_mask_base_uri': 'https://maps.gstatic.com/mapfiles/place_api/icons/v2/generic_pinlet', 'name': 'Centro de Saúde Novo Continente', 'opening_hours': {'open_now': True}, 'photos': [{'height': 720, 'html_attributions': ['<a href="https://maps.google.com/maps/contrib/112821953271895081897">A Google User</a>'], 'photo_reference': 'AWU5eFgLDxRtuwMig7O8Yt3xEC9ZpXJABcy1Qfa35M7kJ902I73fwoc-qlvgis2qrd4gR_xw9y66AH85iPLSc86bT4D_56YrsTwvzAKtPdkMRHTD7JcE-uFrrzXEqTqxX_p2D-IrKE1XDueGgKeUEmy4BQ3T3uyB-Fwrrvrv3hQ4QBcnw91z', 'width': 1280}], 'place_id': 'ChIJE9MgMkY3J5UR9na9FIj5Zs0', 'plus_code': {'compound_code': 'CC2C+Q3 Capoeiras, Florianópolis - State of Santa Catarina', 'global_code': '584HCC2C+Q3'}, 'rating': 3.6, 'reference': 'ChIJE9MgMkY3J5UR9na9FIj5Zs0', 'scope': 'GOOGLE', 'types': ['doctor', 'health', 'point_of_interest', 'establishment'], 'user_ratings_total': 29, 'vicinity': 'Rua Prof. Clementino de Brito, s/n Subida em frente ao prédio Torre de Casteleoni (nro.455), portão azul - Capoeiras, Florianópolis'}, {'

': 'OPERATIONAL', 'geometry': {'location': {'lat': -27.6498806, 'lng': -48.4779073}, 'viewport': {'northeast': {'lat': -27.64862257010728, 'lng': -48.47661512010728}, 'southwest': {'lat': -27.65132222989272, 'lng': -48.47931477989273}}}, 'icon': 'https://maps.gstatic.com/mapfiles/place_api/icons/v1/png_71/civic_building-71.png', 'icon_background_color': '#7B9EB0', 'icon_mask_base_uri': 'https://maps.gstatic.com/mapfiles/place_api/icons/v2/civic-bldg_pinlet', 'name': 'Centro de Saúde Rio Tavares ( Próx. a Pedrita)', 'opening_hours': {'open_now': True}, 'photos': [{'height': 864, 'html_attributions': ['<a href="https://maps.google.com/maps/contrib/107139654563035685721">A Google User</a>'], 'photo_reference': 'AWU5eFi-j47HRthkQIJzJ80N3bitpPiZirgJnc8TsA96cLbfMANCq5YOptHHPZMiwrpRQWe05PJH2Yd-Biv8CVbV76oYSsNup8bYC9awxDP0Tz56gzKl7N-20m4shnIM6oqCkOZfsPIe6NZ97KiOvZDQEIbjqbN4JYI6ureHe6tHYO3EDl6R', 'width': 1152}], 'place_id': 'ChIJOSyf3Z09J5UR-BUQVA_bmHY', 'plus_code': {'compound_code': '9G2C+3R Rio Tavares, Florianópolis - State of Santa Catarina', 'global_code': '584H9G2C+3R'}, 'rating': 4.7, 'reference': 'ChIJOSyf3Z09J5UR-BUQVA_bmHY', 'scope': 'GOOGLE', 'types': ['doctor', 'health', 'point_of_interest', 'establishment'], 'user_ratings_total': 244, 'vicinity': 'R. Silvio Lopes Araújo, 41 - Rio Tavares, Florianópolis'}, {'

': 'OPERATIONAL', 'geometry': {'location': {'lat': -27.5855574, 'lng': -48.5826922}, 'viewport': {'northeast': {'lat': -27.58422632010727, 'lng': -48.58132532010728}, 'southwest': {'lat': -27.58692597989272, 'lng': -48.58402497989272}}}, 'icon': 'https://maps.gstatic.com/mapfiles/place_api/icons/v1/png_71/civic_building-71.png', 'icon_background_color': '#7B9EB0', 'icon_mask_base_uri': 'https://maps.gstatic.com/mapfiles/place_api/icons/v2/civic-bldg_pinlet', 'name': 'CS Estreito', 'opening_hours': {'open_now': True}, 'photos': [{'height': 1181, 'html_attributions': ['<a href="https://maps.google.com/maps/contrib/113962460526638374507">A Google User</a>'], 'photo_reference': 'AWU5eFgsmf-cvXgDHQ2rFbyQIlWb35RmroGBVTYiRtTeMUdnDdx80C4gSfD9O3LfSFP9C_fx4s5SStC9Exp8QrDUpOTXKcgpnBqczYgKR99mlgKoNUIixlhvqIkzKAUfVcVSXlagFlnbrL5cubSTCiJZ0Ph_ZVyJCh2lVxei7aKZWUM9FgjC', 'width': 1575}], 'place_id': 'ChIJaRUfCKk3J5URO0q_rglsOZI', 'plus_code': {'compound_code': 'CC78+QW Estreito, Florianópolis - State of Santa Catarina', 'global_code': '584HCC78+QW'}, 'rating': 3.3, 'reference': 'ChIJaRUfCKk3J5URO0q_rglsOZI', 'scope': 'GOOGLE', 'types': ['doctor', 'health', 'point_of_interest', 'establishment'], 'user_ratings_total': 116, 'vicinity': 'Rua Araci Vaz Callado, 742 - Estreito, Florianópolis'}, {'

': 'OPERATIONAL', 'geometry': {'location': {'lat': -27.6058052, 'lng': -48.5852869}, 'viewport': {'northeast': {'lat': -27.60441662010728, 'lng': -48.58389227010728}, 'southwest': {'lat': -27.60711627989272, 'lng': -48.58659192989272}}}, 'icon': 'https://maps.gstatic.com/mapfiles/place_api/icons/v1/png_71/civic_building-71.png', 'icon_background_color': '#7B9EB0', 'icon_mask_base_uri': 'https://maps.gstatic.com/mapfiles/place_api/icons/v2/civic-bldg_pinlet', 'name': 'Centro de Saúde Vila Aparecida', 'opening_hours': {'open_now': True}, 'photos': [{'height': 1181, 'html_attributions': ['<a href="https://maps.google.com/maps/contrib/104369124054183862962">Rafael Branco</a>'], 'photo_reference': 'AWU5eFhpK65CR6lD5DdC73GCP36HdxZGYwsJAo7GTgnh0TE8ocURbzLwmXrjDwUG59jg8CFEvUvIDhORrfuqBuBZISsqrHAwsKF_EOrU7nOIvDcZXuvorLEf4jdOMoRzHukWnyfenkz6p3BmrD4pryqopV-ajPD4cJtHHj0s4bMctXJ539fe', 'width': 1575}], 'place_id': 'ChIJUyNkKJ83J5UR18vFcFecuL0', 'plus_code': {'compound_code': '9CV7+MV Florianópolis, State of Santa Catarina', 'global_code': '584H9CV7+MV'}, 'rating': 2.4, 'reference': 'ChIJUyNkKJ83J5UR18vFcFecuL0', 'scope': 'GOOGLE', 'types': ['hospital', 'doctor', 'health', 'point_of_interest', 'establishment'], 'user_ratings_total': 19, 'vicinity': 'R. Fermino Costa, 284 - Vila Aparecida, Florianópolis'}], 'status': 'OK'}